% program   : RTKPOST ver.2.4.3 b9
% inp file  : D:\super projet SB1\12-07-2016\2e essai (1 min attente)\mobile\20Hz\rinex\06111947.16o
% inp file  : D:\super projet SB1\12-07-2016\2e essai (1 min attente)\base\rinex\03981941.16o
% inp file  : D:\super projet SB1\12-07-2016\2e essai (1 min attente)\mobile\20Hz\rinex\06111947.16n
% inp file  : D:\super projet SB1\12-07-2016\2e essai (1 min attente)\mobile\20Hz\rinex\06111947.16g
% obs start : 2016/07/12 10:12:06.6 UTC (week1905 209543.6s)
% obs end   : 2016/07/12 10:14:30.8 UTC (week1905 209687.8s)
% pos mode  : moving-base
% freqs     : L1+L2
% solution  : combined
% elev mask : 10.0 deg
% dynamics  : off
% tidecorr  : off
% ionos opt : broadcast
% tropo opt : saastamoinen
% ephemeris : broadcast
% amb res   : fix and hold
% val thres : 3.0
% antenna1  : SPP91564_2      NONE  (-0.0000 -0.0000  0.0000)
% antenna2  : SPP91564_2      NONE  (-0.0000 -0.0000  0.3772)
%
% (x/y/z-ecef=WGS84,Q=1:fix,2:float,3:sbas,4:dgps,5:single,6:ppp,ns=# of satellites)
%  UTC                       x-ecef(m)      y-ecef(m)      z-ecef(m)   Q  ns   sdx(m)   sdy(m)   sdz(m)  sdxy(m)  sdyz(m)  sdzx(m) age(s)  ratio
2016/07/12 10:12:06.650        -2.2428        -2.0420         3.2257   2   8   0.5716   0.2676   0.5762   0.1712  -0.1483   0.3641   0.00    1.2
2016/07/12 10:12:06.700   4575473.1729    462672.5958   4405582.0696   1   8   0.0082   0.0041   0.0084   0.0027  -0.0018   0.0052   0.00  390.0
2016/07/12 10:12:06.750   4575473.1790    462672.5855   4405582.0733   1   8   0.0082   0.0041   0.0084   0.0021  -0.0023   0.0051   0.00  389.9
2016/07/12 10:12:06.800   4575473.1849    462672.5965   4405582.0649   1   8   0.0081   0.0040   0.0082   0.0025  -0.0014   0.0052   0.00  389.8
2016/07/12 10:12:06.850   4575473.1934    462672.5961   4405582.0813   1   8   0.0082   0.0042   0.0081   0.0023  -0.0020   0.0053   0.00  389.7
2016/07/12 10:12:06.900   4575473.1735    462672.5861   4405582.0651   1   8   0.0081   0.0034   0.0083   0.0025  -0.0026   0.0052   0.00  389.7
2016/07/12 10:12:06.950   4575473.1914    462672.5906   4405582.0800   1   8   0.0082   0.0038   0.0084   0.0023  -0.0020   0.0052   0.00  389.6
2016/07/12 10:12:07.000   4575473.1716    462672.5880   4405582.0770   1   8   0.0081   0.0038   0.0083   0.0024  -0.0024   0.0053   0.00  389.5
2016/07/12 10:12:07.050   4575473.1725    462672.5846   4405582.0684   1   8   0.0081   0.0035   0.0083   0.0026  -0.0018   0.0052   0.00  389.4
2016/07/12 10:12:07.100   4575473.1863    462672.5859   4405582.0749   1   8   0.0081   0.0039   0.0084   0.0023  -0.0022   0.0052   0.00  389.3
2016/07/12 10:12:07.150   4575473.1907    462672.5848   4405582.0774   1   8   0.0081   0.0030   0.0082   0.0027  -0.0025   0.0052   0.00  389.2
2016/07/12 10:12:07.200   4575473.1777    462672.5806   4405582.0783   1   8   0.0082   0.0039   0.0083   0.0023  -0.0025   0.0051   0.00  389.1
2016/07/12 10:12:07.250   4575473.1830    462672.5819   4405582.0771   1   8   0.0082   0.0039   0.0085   0.0023  -0.0021   0.0051   0.00  389.0
2016/07/12 10:12:07.300   4575473.1744    462672.5803   4405582.0781   1   8   0.0081   0.0036   0.0083   0.0025  -0.0019   0.0052   0.00  388.8
2016/07/12 10:12:07.350   4575473.1861    462672.5733   4405582.0831   1   8   0.0081   0.0036   0.0084   0.0026  -0.0021   0.0051   0.00  388.8
2016/07/12 10:12:07.400   4575473.1864    462672.5841   4405582.0789   1   8   0.0081   0.0031   0.0084   0.0027  -0.0025   0.0051   0.00  388.6
2016/07/12 10:12:07.450   4575473.1739    462672.5768   4405582.0780   1   8   0.0082   0.0036   0.0081   0.0024  -0.0018   0.0052   0.00  388.5
2016/07/12 10:12:07.500   4575473.1900    462672.5754   4405582.0900   1   8   0.0082   0.0046   0.0084   0.0020  -0.0019   0.0051   0.00  388.3
2016/07/12 10:12:07.550   4575473.1708    462672.5753   4405582.0829   1   8   0.0081   0.0039   0.0084   0.0024  -0.0025   0.0052   0.00  388.2
2016/07/12 10:12:07.600   4575473.1783    462672.5785   4405582.0824   1   8   0.0082   0.0044   0.0084   0.0021  -0.0019   0.0052   0.00  388.1
2016/07/12 10:12:07.650   4575473.1695    462672.5780   4405582.0715   1   8   0.0082   0.0037   0.0083   0.0025  -0.0021   0.0050   0.00  388.0
2016/07/12 10:12:07.700   4575473.1812    462672.5795   4405582.0769   1   8   0.0081   0.0040   0.0081   0.0020  -0.0025   0.0053   0.00  387.8
2016/07/12 10:12:07.750   4575473.1918    462672.5835   4405582.0870   1   8   0.0082   0.0041   0.0085   0.0022  -0.0021   0.0051   0.00  387.7
2016/07/12 10:12:07.800   4575473.1840    462672.5790   4405582.0849   1   8   0.0081   0.0039   0.0084   0.0025  -0.0017   0.0052   0.00  387.6
2016/07/12 10:12:07.850   4575473.1851    462672.5838   4405582.0809   1   8   0.0081   0.0042   0.0081   0.0026  -0.0016   0.0053   0.00  387.4
2016/07/12 10:12:07.900   4575473.1882    462672.5845   4405582.0824   1   8   0.0082   0.0040   0.0084   0.0020  -0.0028   0.0052   0.00  387.2
2016/07/12 10:12:07.950   4575473.1848    462672.5823   4405582.0750   1   8   0.0081   0.0036   0.0081   0.0024  -0.0022   0.0052   0.00  387.0
2016/07/12 10:12:08.000   4575473.1825    462672.5776   4405582.0868   1   8   0.0082   0.0042   0.0084   0.0021  -0.0022   0.0051   0.00  386.8
2016/07/12 10:12:08.050   4575473.1895    462672.5762   4405582.0843   1   8   0.0081   0.0037   0.0082   0.0028  -0.0016   0.0052   0.00  386.7
2016/07/12 10:12:08.100   4575473.1710    462672.5784   4405582.0743   1   8   0.0082   0.0040   0.0084   0.0024  -0.0023   0.0051   0.00  386.5
2016/07/12 10:12:08.150   4575473.1631    462672.5803   4405582.0864   1   8   0.0081   0.0039   0.0084   0.0025  -0.0022   0.0051   0.00  386.4
2016/07/12 10:12:08.200   4575473.1890    462672.5843   4405582.0798   1   8   0.0082   0.0038   0.0083   0.0024  -0.0024   0.0052   0.00  386.3
2016/07/12 10:12:08.250   4575473.1748    462672.5899   4405582.0801   1   8   0.0082   0.0039   0.0084   0.0023  -0.0023   0.0052   0.00  386.2
2016/07/12 10:12:08.300   4575473.1909    462672.5876   4405582.0917   1   8   0.0081   0.0036   0.0080   0.0028  -0.0023   0.0052   0.00  386.1
2016/07/12 10:12:08.350   4575473.1747    462672.5835   4405582.0779   1   8   0.0081   0.0042   0.0083   0.0025  -0.0021   0.0052   0.00  386.0
2016/07/12 10:12:08.400   4575473.1605    462672.5891   4405582.0771   1   8   0.0081   0.0037   0.0082   0.0025  -0.0024   0.0052   0.00  385.9
2016/07/12 10:12:08.450   4575473.1894    462672.5892   4405582.0965   1   8   0.0081   0.0039   0.0083   0.0025  -0.0022   0.0052   0.00  385.8
2016/07/12 10:12:08.500   4575473.1912    462672.5897   4405582.0904   1   8   0.0082   0.0037   0.0083   0.0024  -0.0021   0.0051   0.00  385.6
2016/07/12 10:12:08.550   4575473.1800    462672.5902   4405582.0817   1   8   0.0081   0.0039   0.0083   0.0028  -0.0021   0.0052   0.00  385.5
2016/07/12 10:12:08.600   4575473.1659    462672.5948   4405582.0788   1   8   0.0082   0.0040   0.0084   0.0024  -0.0022   0.0051   0.00  385.4
2016/07/12 10:12:08.650   4575473.1711    462672.5814   4405582.0816   1   8   0.0081   0.0035   0.0082   0.0028  -0.0019   0.0052   0.00  385.3
2016/07/12 10:12:08.700   4575473.1747    462672.5914   4405582.0799   1   8   0.0081   0.0041   0.0082   0.0025  -0.0017   0.0052   0.00  385.1
2016/07/12 10:12:08.750   4575473.1775    462672.5835   4405582.0924   1   8   0.0082   0.0041   0.0083   0.0022  -0.0023   0.0052   0.00  384.9
2016/07/12 10:12:08.800   4575473.1854    462672.5829   4405582.0775   1   8   0.0081   0.0040   0.0083   0.0023  -0.0025   0.0052   0.00  384.8
2016/07/12 10:12:08.850   4575473.1849    462672.5930   4405582.0738   1   8   0.0082   0.0041   0.0081   0.0025  -0.0018   0.0052   0.00  384.8
2016/07/12 10:12:08.900   4575473.1840    462672.5828   4405582.0675   1   8   0.0082   0.0036   0.0083   0.0023  -0.0027   0.0052   0.00  384.7
2016/07/12 10:12:08.950   4575473.1854    462672.5861   4405582.0953   1   8   0.0082   0.0040   0.0083   0.0023  -0.0021   0.0052   0.00  384.5
2016/07/12 10:12:09.000   4575473.1891    462672.5962   4405582.0908   1   8   0.0081   0.0036   0.0083   0.0025  -0.0020   0.0052   0.00  384.3
2016/07/12 10:12:09.050   4575473.1837    462672.5884   4405582.0803   1   8   0.0081   0.0035   0.0082   0.0026  -0.0022   0.0051   0.00  384.1
2016/07/12 10:12:09.100   4575473.1745    462672.5884   4405582.0786   1   8   0.0082   0.0039   0.0081   0.0023  -0.0022   0.0053   0.00  384.0
2016/07/12 10:12:09.150   4575473.1882    462672.5887   4405582.0796   1   8   0.0082   0.0038   0.0083   0.0024  -0.0022   0.0053   0.00  383.9
2016/07/12 10:12:09.200   4575473.1725    462672.5926   4405582.0792   1   8   0.0082   0.0043   0.0082   0.0022  -0.0023   0.0053   0.00  383.8
2016/07/12 10:12:09.250   4575473.1860    462672.5935   4405582.0747   1   8   0.0081   0.0040   0.0083   0.0025  -0.0021   0.0051   0.00  383.6
2016/07/12 10:12:09.300   4575473.1746    462672.5977   4405582.0751   1   8   0.0081   0.0040   0.0083   0.0024  -0.0018   0.0052   0.00  383.4
2016/07/12 10:12:09.350   4575473.1766    462672.5946   4405582.0815   1   8   0.0082   0.0040   0.0083   0.0025  -0.0020   0.0052   0.00  383.3
2016/07/12 10:12:09.400   4575473.1720    462672.5942   4405582.0853   1   8   0.0082   0.0037   0.0082   0.0024  -0.0026   0.0052   0.00  383.1
2016/07/12 10:12:09.450   4575473.1722    462672.5978   4405582.0819   1   8   0.0082   0.0039   0.0083   0.0023  -0.0023   0.0052   0.00  382.9
2016/07/12 10:12:09.500   4575473.1731    462672.5911   4405582.0826   1   8   0.0082   0.0040   0.0084   0.0028  -0.0020   0.0051   0.00  382.8
2016/07/12 10:12:09.550   4575473.1571    462672.5916   4405582.0752   1   8   0.0082   0.0039   0.0083   0.0023  -0.0020   0.0053   0.00  382.7
2016/07/12 10:12:09.600   4575473.1761    462672.5878   4405582.0922   1   8   0.0081   0.0040   0.0082   0.0025  -0.0023   0.0052   0.00  382.5
2016/07/12 10:12:09.650   4575473.1730    462672.5867   4405582.0962   1   8   0.0081   0.0038   0.0083   0.0026  -0.0023   0.0052   0.00  382.3
2016/07/12 10:12:09.700   4575473.1740    462672.5941   4405582.0963   1   8   0.0081   0.0033   0.0084   0.0026  -0.0020   0.0051   0.00  382.2
2016/07/12 10:12:09.750   4575473.1655    462672.5872   4405582.0891   1   8   0.0082   0.0033   0.0083   0.0025  -0.0025   0.0052   0.00  382.0
2016/07/12 10:12:09.800   4575473.1754    462672.5873   4405582.1097   1   8   0.0082   0.0041   0.0084   0.0023  -0.0022   0.0053   0.00  381.9
2016/07/12 10:12:09.850   4575473.1726    462672.5870   4405582.0985   1   8   0.0082   0.0040   0.0086   0.0024  -0.0021   0.0052   0.00  381.8
2016/07/12 10:12:09.900   4575473.1745    462672.5789   4405582.1009   1   8   0.0081   0.0038   0.0083   0.0023  -0.0023   0.0052   0.00  381.6
2016/07/12 10:12:09.950   4575473.1616    462672.5811   4405582.1030   1   8   0.0081   0.0037   0.0081   0.0027  -0.0022   0.0051   0.00  381.5
2016/07/12 10:12:10.000   4575473.1593    462672.5833   4405582.0998   1   8   0.0081   0.0037   0.0083   0.0026  -0.0019   0.0052   0.00  381.3
2016/07/12 10:12:10.050   4575473.1720    462672.5865   4405582.1087   1   8   0.0082   0.0038   0.0083   0.0024  -0.0022   0.0052   0.00  381.2
2016/07/12 10:12:10.100   4575473.1668    462672.5759   4405582.1014   1   8   0.0082   0.0040   0.0084   0.0024  -0.0020   0.0053   0.00  381.0
2016/07/12 10:12:10.150   4575473.1720    462672.5835   4405582.1002   1   8   0.0081   0.0035   0.0082   0.0027  -0.0021   0.0051   0.00  380.8
2016/07/12 10:12:10.200   4575473.1513    462672.5762   4405582.0946   1   8   0.0081   0.0036   0.0083   0.0027  -0.0024   0.0051   0.00  380.7
2016/07/12 10:12:10.250   4575473.1496    462672.5702   4405582.0911   1   8   0.0082   0.0040   0.0081   0.0024  -0.0022   0.0052   0.00  380.6
2016/07/12 10:12:10.300   4575473.1714    462672.5769   4405582.1043   1   8   0.0081   0.0039   0.0082   0.0024  -0.0023   0.0052   0.00  380.5
2016/07/12 10:12:10.350   4575473.1762    462672.5790   4405582.1073   1   8   0.0081   0.0039   0.0085   0.0024  -0.0021   0.0052   0.00  380.3
2016/07/12 10:12:10.400   4575473.1578    462672.5699   4405582.1028   1   8   0.0081   0.0038   0.0084   0.0024  -0.0022   0.0052   0.00  380.0
2016/07/12 10:12:10.450   4575473.1561    462672.5705   4405582.0957   1   8   0.0081   0.0039   0.0084   0.0025  -0.0016   0.0051   0.00  379.8
2016/07/12 10:12:10.500   4575473.1481    462672.5697   4405582.1082   1   8   0.0081   0.0034   0.0081   0.0026  -0.0024   0.0052   0.00  379.6
2016/07/12 10:12:10.550   4575473.1587    462672.5730   4405582.0917   1   8   0.0082   0.0039   0.0083   0.0025  -0.0020   0.0052   0.00  379.4
2016/07/12 10:12:10.600   4575473.1582    462672.5779   4405582.1055   1   8   0.0081   0.0041   0.0082   0.0025  -0.0013   0.0052   0.00  379.3
2016/07/12 10:12:10.650   4575473.1645    462672.5712   4405582.1089   1   8   0.0081   0.0037   0.0083   0.0025  -0.0024   0.0052   0.00  379.1
2016/07/12 10:12:10.700   4575473.1669    462672.5776   4405582.1028   1   8   0.0082   0.0041   0.0083   0.0025  -0.0023   0.0051   0.00  378.8
2016/07/12 10:12:10.750   4575473.1709    462672.5703   4405582.1070   1   8   0.0081   0.0035   0.0085   0.0027  -0.0021   0.0051   0.00  378.6
2016/07/12 10:12:10.800   4575473.1469    462672.5681   4405582.1053   1   8   0.0081   0.0036   0.0083   0.0025  -0.0023   0.0052   0.00  378.4
2016/07/12 10:12:10.850   4575473.1524    462672.5789   4405582.1045   1   8   0.0081   0.0039   0.0083   0.0023  -0.0022   0.0051   0.00  378.2
2016/07/12 10:12:10.900   4575473.1582    462672.5739   4405582.1061   1   8   0.0082   0.0033   0.0083   0.0023  -0.0024   0.0052   0.00  378.0
2016/07/12 10:12:10.950   4575473.1480    462672.5727   4405582.0996   1   8   0.0081   0.0038   0.0082   0.0027  -0.0020   0.0053   0.00  377.8
2016/07/12 10:12:11.000   4575473.1653    462672.5826   4405582.1058   1   8   0.0081   0.0037   0.0082   0.0025  -0.0022   0.0052   0.00  377.6
2016/07/12 10:12:11.050   4575473.1457    462672.5735   4405582.1023   1   8   0.0082   0.0039   0.0083   0.0024  -0.0025   0.0052   0.00  377.4
2016/07/12 10:12:11.100   4575473.1644    462672.5805   4405582.1070   1   8   0.0081   0.0035   0.0081   0.0026  -0.0020   0.0052   0.00  377.3
2016/07/12 10:12:11.150   4575473.1672    462672.5800   4405582.1082   1   8   0.0082   0.0041   0.0085   0.0022  -0.0023   0.0052   0.00  377.1
2016/07/12 10:12:11.200   4575473.1617    462672.5759   4405582.1011   1   8   0.0081   0.0037   0.0083   0.0025  -0.0023   0.0051   0.00  376.9
2016/07/12 10:12:11.250   4575473.1548    462672.5832   4405582.1055   1   8   0.0082   0.0041   0.0084   0.0024  -0.0023   0.0052   0.00  376.7
2016/07/12 10:12:11.300   4575473.1751    462672.5812   4405582.1080   1   8   0.0082   0.0039   0.0083   0.0024  -0.0021   0.0052   0.00  376.5
2016/07/12 10:12:11.350   4575473.1781    462672.5765   4405582.1021   1   8   0.0081   0.0036   0.0084   0.0026  -0.0024   0.0052   0.00  376.3
2016/07/12 10:12:11.400   4575473.1587    462672.5726   4405582.0979   1   8   0.0082   0.0039   0.0083   0.0023  -0.0024   0.0053   0.00  376.1
2016/07/12 10:12:11.450   4575473.1685    462672.5738   4405582.1004   1   8   0.0080   0.0038   0.0085   0.0026  -0.0016   0.0051   0.00  376.0
2016/07/12 10:12:11.500   4575473.1726    462672.5763   4405582.1078   1   8   0.0082   0.0039   0.0083   0.0026  -0.0016   0.0052   0.00  375.8
2016/07/12 10:12:11.550   4575473.1520    462672.5730   4405582.1041   1   8   0.0082   0.0034   0.0083   0.0025  -0.0024   0.0051   0.00  375.6
2016/07/12 10:12:11.600   4575473.1716    462672.5713   4405582.1054   1   8   0.0081   0.0040   0.0083   0.0025  -0.0021   0.0052   0.00  375.3
2016/07/12 10:12:11.650   4575473.1553    462672.5744   4405582.1046   1   8   0.0081   0.0041   0.0081   0.0025  -0.0020   0.0051   0.00  375.1
2016/07/12 10:12:11.700   4575473.1630    462672.5822   4405582.1075   1   8   0.0081   0.0042   0.0082   0.0024  -0.0018   0.0052   0.00  374.9
2016/07/12 10:12:11.750   4575473.1667    462672.5733   4405582.1110   1   8   0.0080   0.0037   0.0083   0.0028  -0.0021   0.0052   0.00  374.6
2016/07/12 10:12:11.800   4575473.1693    462672.5718   4405582.1144   1   8   0.0081   0.0037   0.0082   0.0022  -0.0023   0.0052   0.00  374.3
2016/07/12 10:12:11.850   4575473.1656    462672.5805   4405582.1151   1   8   0.0082   0.0038   0.0084   0.0024  -0.0025   0.0051   0.00  374.1
2016/07/12 10:12:11.900   4575473.1708    462672.5738   4405582.1183   1   8   0.0082   0.0039   0.0082   0.0023  -0.0025   0.0052   0.00  373.8
2016/07/12 10:12:11.950   4575473.1668    462672.5769   4405582.1158   1   8   0.0081   0.0032   0.0083   0.0025  -0.0024   0.0052   0.00  373.6
2016/07/12 10:12:12.000   4575473.1641    462672.5728   4405582.1072   1   8   0.0082   0.0040   0.0084   0.0022  -0.0024   0.0052   0.00  373.3
2016/07/12 10:12:12.050   4575473.1647    462672.5767   4405582.1065   1   8   0.0081   0.0035   0.0083   0.0026  -0.0022   0.0051   0.00  373.2
2016/07/12 10:12:12.100   4575473.1590    462672.5796   4405582.1023   1   8   0.0081   0.0040   0.0082   0.0025  -0.0020   0.0052   0.00  373.0
2016/07/12 10:12:12.150   4575473.1839    462672.5751   4405582.1061   1   8   0.0081   0.0039   0.0083   0.0023  -0.0024   0.0053   0.00  372.8
2016/07/12 10:12:12.200   4575473.1527    462672.5746   4405582.1008   1   8   0.0082   0.0038   0.0083   0.0023  -0.0025   0.0052   0.00  372.6
2016/07/12 10:12:12.250   4575473.1648    462672.5761   4405582.1106   1   8   0.0082   0.0036   0.0082   0.0024  -0.0021   0.0052   0.00  372.4
2016/07/12 10:12:12.300   4575473.1687    462672.5740   4405582.1165   1   8   0.0081   0.0033   0.0082   0.0028  -0.0020   0.0052   0.00  372.1
2016/07/12 10:12:12.350   4575473.1694    462672.5739   4405582.1159   1   8   0.0082   0.0037   0.0084   0.0026  -0.0023   0.0051   0.00  371.9
2016/07/12 10:12:12.400   4575473.1728    462672.5710   4405582.1184   1   8   0.0081   0.0037   0.0083   0.0023  -0.0022   0.0052   0.00  371.7
2016/07/12 10:12:12.450   4575473.1578    462672.5768   4405582.1143   1   8   0.0081   0.0035   0.0084   0.0026  -0.0023   0.0052   0.00  371.5
2016/07/12 10:12:12.500   4575473.1682    462672.5677   4405582.1113   1   8   0.0082   0.0041   0.0082   0.0024  -0.0020   0.0052   0.00  371.4
2016/07/12 10:12:12.550   4575473.1664    462672.5751   4405582.1115   1   8   0.0082   0.0043   0.0082   0.0022  -0.0018   0.0053   0.00  371.2
2016/07/12 10:12:12.600   4575473.1750    462672.5672   4405582.1192   1   8   0.0081   0.0039   0.0082   0.0024  -0.0020   0.0053   0.00  371.0
2016/07/12 10:12:12.650   4575473.1715    462672.5745   4405582.1171   1   8   0.0082   0.0039   0.0083   0.0023  -0.0024   0.0052   0.00  370.7
2016/07/12 10:12:12.700   4575473.1767    462672.5731   4405582.1217   1   8   0.0082   0.0040   0.0083   0.0023  -0.0024   0.0052   0.00  370.5
2016/07/12 10:12:12.750   4575473.1743    462672.5699   4405582.1169   1   8   0.0082   0.0040   0.0086   0.0022  -0.0024   0.0051   0.00  370.3
2016/07/12 10:12:12.800   4575473.1469    462672.5702   4405582.1049   1   8   0.0081   0.0037   0.0083   0.0025  -0.0020   0.0052   0.00  370.2
2016/07/12 10:12:12.850   4575473.1500    462672.5768   4405582.1101   1   8   0.0082   0.0041   0.0082   0.0021  -0.0023   0.0053   0.00  370.0
2016/07/12 10:12:12.900   4575473.1854    462672.5774   4405582.1211   1   8   0.0082   0.0042   0.0083   0.0023  -0.0023   0.0052   0.00  369.8
2016/07/12 10:12:12.950   4575473.1753    462672.5797   4405582.1175   1   8   0.0083   0.0043   0.0083   0.0024  -0.0022   0.0053   0.00  369.6
2016/07/12 10:12:13.000   4575473.1594    462672.5740   4405582.1231   1   8   0.0081   0.0037   0.0084   0.0023  -0.0023   0.0052   0.00  369.4
2016/07/12 10:12:13.050   4575473.1603    462672.5820   4405582.1231   1   8   0.0082   0.0038   0.0083   0.0025  -0.0023   0.0052   0.00  369.3
2016/07/12 10:12:13.100   4575473.1656    462672.5761   4405582.1179   1   8   0.0082   0.0042   0.0083   0.0020  -0.0023   0.0052   0.00  369.1
2016/07/12 10:12:13.150   4575473.1624    462672.5840   4405582.1170   1   8   0.0081   0.0037   0.0082   0.0026  -0.0020   0.0052   0.00  368.9
2016/07/12 10:12:13.200   4575473.1481    462672.5705   4405582.1035   1   8   0.0081   0.0033   0.0083   0.0027  -0.0021   0.0051   0.00  368.8
2016/07/12 10:12:13.250   4575473.1728    462672.5763   4405582.1217   1   8   0.0082   0.0037   0.0083   0.0024  -0.0023   0.0052   0.00  368.7
2016/07/12 10:12:13.300   4575473.1613    462672.5762   4405582.1327   1   8   0.0081   0.0039   0.0082   0.0022  -0.0026   0.0053   0.00  368.5
2016/07/12 10:12:13.350   4575473.1515    462672.5837   4405582.1161   1   8   0.0081   0.0038   0.0082   0.0025  -0.0024   0.0052   0.00  368.3
2016/07/12 10:12:13.400   4575473.1656    462672.5841   4405582.1293   1   8   0.0081   0.0038   0.0083   0.0025  -0.0019   0.0052   0.00  368.1
2016/07/12 10:12:13.450   4575473.1709    462672.5800   4405582.1143   1   8   0.0081   0.0041   0.0083   0.0023  -0.0022   0.0051   0.00  367.8
2016/07/12 10:12:13.500   4575473.1726    462672.5848   4405582.1262   1   8   0.0082   0.0044   0.0083   0.0019  -0.0022   0.0052   0.00  367.6
2016/07/12 10:12:13.550   4575473.1450    462672.5763   4405582.1149   1   8   0.0081   0.0037   0.0082   0.0024  -0.0020   0.0053   0.00  367.5
2016/07/12 10:12:13.600   4575473.1595    462672.5735   4405582.1195   1   8   0.0081   0.0040   0.0083   0.0025  -0.0019   0.0052   0.00  367.3
2016/07/12 10:12:13.650   4575473.1474    462672.5784   4405582.1056   1   8   0.0082   0.0040   0.0082   0.0022  -0.0024   0.0053   0.00  367.1
2016/07/12 10:12:13.700   4575473.1719    462672.5738   4405582.1248   1   8   0.0081   0.0035   0.0081   0.0025  -0.0023   0.0052   0.00  366.9
2016/07/12 10:12:13.750   4575473.1590    462672.5787   4405582.1163   1   8   0.0081   0.0037   0.0082   0.0027  -0.0020   0.0052   0.00  366.7
2016/07/12 10:12:13.800   4575473.1553    462672.5754   4405582.1250   1   8   0.0082   0.0042   0.0084   0.0024  -0.0023   0.0052   0.00  366.5
2016/07/12 10:12:13.850   4575473.1581    462672.5768   4405582.1242   1   8   0.0081   0.0039   0.0083   0.0023  -0.0022   0.0052   0.00  366.3
2016/07/12 10:12:13.900   4575473.1539    462672.5788   4405582.1057   1   8   0.0080   0.0036   0.0084   0.0027  -0.0017   0.0051   0.00  366.1
2016/07/12 10:12:13.950   4575473.1715    462672.5756   4405582.1295   1   8   0.0082   0.0038   0.0084   0.0025  -0.0023   0.0051   0.00  365.9
2016/07/12 10:12:14.000   4575473.1547    462672.5726   4405582.1199   1   8   0.0082   0.0039   0.0084   0.0025  -0.0019   0.0051   0.00  365.7
2016/07/12 10:12:14.050   4575473.1547    462672.5782   4405582.1209   1   8   0.0081   0.0040   0.0084   0.0024  -0.0021   0.0052   0.00  365.4
2016/07/12 10:12:14.100   4575473.1801    462672.5793   4405582.1272   1   8   0.0082   0.0039   0.0084   0.0025  -0.0023   0.0051   0.00  365.3
2016/07/12 10:12:14.150   4575473.1623    462672.5687   4405582.1120   1   8   0.0082   0.0039   0.0084   0.0024  -0.0022   0.0051   0.00  365.1
2016/07/12 10:12:14.200   4575473.1694    462672.5738   4405582.1202   1   8   0.0081   0.0035   0.0082   0.0025  -0.0021   0.0052   0.00  364.9
2016/07/12 10:12:14.250   4575473.1569    462672.5685   4405582.1104   1   8   0.0082   0.0040   0.0083   0.0020  -0.0025   0.0053   0.00  364.7
2016/07/12 10:12:14.300   4575473.1669    462672.5742   4405582.1289   1   8   0.0081   0.0039   0.0084   0.0023  -0.0021   0.0052   0.00  364.5
2016/07/12 10:12:14.350   4575473.1480    462672.5674   4405582.1131   1   8   0.0082   0.0038   0.0083   0.0024  -0.0023   0.0052   0.00  364.2
2016/07/12 10:12:14.400   4575473.1498    462672.5714   4405582.1177   1   8   0.0082   0.0038   0.0081   0.0024  -0.0026   0.0053   0.00  364.0
2016/07/12 10:12:14.450   4575473.1893    462672.5696   4405582.1294   1   8   0.0082   0.0036   0.0082   0.0027  -0.0018   0.0052   0.00  363.8
2016/07/12 10:12:14.500   4575473.1736    462672.5727   4405582.1211   1   8   0.0081   0.0038   0.0081   0.0023  -0.0025   0.0052   0.00  363.6
2016/07/12 10:12:14.550   4575473.1530    462672.5661   4405582.1082   1   8   0.0082   0.0036   0.0082   0.0025  -0.0021   0.0051   0.00  363.5
2016/07/12 10:12:14.600   4575473.1657    462672.5732   4405582.1212   1   8   0.0081   0.0039   0.0081   0.0023  -0.0024   0.0053   0.00  363.4
2016/07/12 10:12:14.650   4575473.1716    462672.5735   4405582.1187   1   8   0.0081   0.0043   0.0084   0.0025  -0.0021   0.0052   0.00  363.2
2016/07/12 10:12:14.700   4575473.1603    462672.5684   4405582.1064   1   8   0.0081   0.0038   0.0084   0.0024  -0.0024   0.0052   0.00  363.0
2016/07/12 10:12:14.750   4575473.1701    462672.5741   4405582.1154   1   8   0.0081   0.0038   0.0084   0.0024  -0.0024   0.0052   0.00  362.7
2016/07/12 10:12:14.800   4575473.1704    462672.5722   4405582.1122   1   8   0.0081   0.0041   0.0083   0.0024  -0.0023   0.0052   0.00  362.5
2016/07/12 10:12:14.850   4575473.1571    462672.5639   4405582.1014   1   8   0.0081   0.0035   0.0083   0.0022  -0.0022   0.0052   0.00  362.3
2016/07/12 10:12:14.900   4575473.1737    462672.5626   4405582.1155   1   8   0.0081   0.0039   0.0084   0.0025  -0.0023   0.0052   0.00  362.1
2016/07/12 10:12:14.950   4575473.1600    462672.5614   4405582.1186   1   8   0.0081   0.0037   0.0082   0.0025  -0.0028   0.0053   0.00  361.9
2016/07/12 10:12:15.000   4575473.1833    462672.5697   4405582.1168   1   8   0.0082   0.0037   0.0081   0.0025  -0.0022   0.0053   0.00  361.6
2016/07/12 10:12:15.050   4575473.1746    462672.5617   4405582.1128   1   8   0.0082   0.0038   0.0084   0.0024  -0.0020   0.0051   0.00  361.5
2016/07/12 10:12:15.100   4575473.1784    462672.5663   4405582.1187   1   8   0.0081   0.0038   0.0085   0.0024  -0.0021   0.0052   0.00  361.3
2016/07/12 10:12:15.150   4575473.1610    462672.5590   4405582.1011   1   8   0.0082   0.0038   0.0083   0.0023  -0.0021   0.0051   0.00  361.1
2016/07/12 10:12:15.200   4575473.1687    462672.5615   4405582.1088   1   8   0.0082   0.0040   0.0081   0.0025  -0.0018   0.0052   0.00  360.9
2016/07/12 10:12:15.250   4575473.1804    462672.5614   4405582.1206   1   8   0.0082   0.0039   0.0083   0.0024  -0.0021   0.0052   0.00  360.7
2016/07/12 10:12:15.300   4575473.1811    462672.5572   4405582.1286   1   8   0.0081   0.0040   0.0084   0.0025  -0.0018   0.0052   0.00  360.4
2016/07/12 10:12:15.350   4575473.1845    462672.5562   4405582.1249   1   8   0.0081   0.0042   0.0084   0.0024  -0.0022   0.0052   0.00  360.1
2016/07/12 10:12:15.400   4575473.1636    462672.5624   4405582.1174   1   8   0.0082   0.0039   0.0083   0.0022  -0.0025   0.0052   0.00  359.9
2016/07/12 10:12:15.450   4575473.1717    462672.5610   4405582.1124   1   8   0.0081   0.0042   0.0084   0.0027  -0.0016   0.0052   0.00  359.6
2016/07/12 10:12:15.500   4575473.1604    462672.5624   4405582.1168   1   8   0.0083   0.0041   0.0084   0.0021  -0.0024   0.0051   0.00  359.4
2016/07/12 10:12:15.550   4575473.1675    462672.5597   4405582.1052   1   8   0.0081   0.0036   0.0083   0.0025  -0.0023   0.0052   0.00  359.2
2016/07/12 10:12:15.600   4575473.1838    462672.5731   4405582.1215   1   8   0.0081   0.0038   0.0082   0.0026  -0.0017   0.0052   0.00  359.0
2016/07/12 10:12:15.650   4575473.1690    462672.5715   4405582.1096   1   8   0.0082   0.0039   0.0084   0.0024  -0.0025   0.0052   0.00  358.8
2016/07/12 10:12:15.700   4575473.1618    462672.5672   4405582.1139   1   8   0.0082   0.0034   0.0082   0.0024  -0.0022   0.0052   0.00  358.6
2016/07/12 10:12:15.750   4575473.1870    462672.5777   4405582.1123   1   8   0.0082   0.0042   0.0084   0.0019  -0.0027   0.0052   0.00  358.4
2016/07/12 10:12:15.800   4575473.1517    462672.5747   4405582.1029   1   8   0.0082   0.0040   0.0083   0.0027  -0.0020   0.0051   0.00  358.2
2016/07/12 10:12:15.850   4575473.1694    462672.5726   4405582.1072   1   8   0.0081   0.0034   0.0082   0.0026  -0.0021   0.0052   0.00  358.0
2016/07/12 10:12:15.900   4575473.1846    462672.5791   4405582.1192   1   8   0.0081   0.0035   0.0083   0.0026  -0.0020   0.0051   0.00  357.9
2016/07/12 10:12:15.950   4575473.1836    462672.5780   4405582.1094   1   8   0.0081   0.0039   0.0082   0.0023  -0.0021   0.0051   0.00  357.7
2016/07/12 10:12:16.000   4575473.1847    462672.5768   4405582.1228   1   8   0.0082   0.0038   0.0085   0.0025  -0.0024   0.0051   0.00  357.6
2016/07/12 10:12:16.050   4575473.1711    462672.5751   4405582.1064   1   8   0.0081   0.0038   0.0082   0.0024  -0.0020   0.0051   0.00  357.4
2016/07/12 10:12:16.100   4575473.1608    462672.5771   4405582.1183   1   8   0.0082   0.0039   0.0084   0.0025  -0.0023   0.0051   0.00  357.2
2016/07/12 10:12:16.150   4575473.1704    462672.5754   4405582.1149   1   8   0.0082   0.0042   0.0083   0.0023  -0.0024   0.0052   0.00  357.1
2016/07/12 10:12:16.200   4575473.1573    462672.5732   4405582.1002   1   8   0.0081   0.0036   0.0083   0.0025  -0.0023   0.0052   0.00  356.9
2016/07/12 10:12:16.250   4575473.1846    462672.5807   4405582.1001   1   8   0.0082   0.0039   0.0083   0.0021  -0.0019   0.0052   0.00  356.8
2016/07/12 10:12:16.300   4575473.1646    462672.5781   4405582.1080   1   8   0.0081   0.0037   0.0083   0.0025  -0.0022   0.0051   0.00  356.6
2016/07/12 10:12:16.350   4575473.1731    462672.5739   4405582.1055   1   8   0.0081   0.0039   0.0084   0.0025  -0.0022   0.0052   0.00  356.5
2016/07/12 10:12:16.400   4575473.1918    462672.5740   4405582.1131   1   8   0.0082   0.0041   0.0083   0.0026  -0.0023   0.0052   0.00  356.3
2016/07/12 10:12:16.450   4575473.1704    462672.5683   4405582.1076   1   8   0.0081   0.0037   0.0080   0.0027  -0.0017   0.0053   0.00  356.1
2016/07/12 10:12:16.500   4575473.1647    462672.5700   4405582.1090   1   8   0.0081   0.0040   0.0081   0.0026  -0.0021   0.0053   0.00  355.9
2016/07/12 10:12:16.550   4575473.1742    462672.5663   4405582.1082   1   8   0.0081   0.0038   0.0083   0.0024  -0.0025   0.0052   0.00  355.7
2016/07/12 10:12:16.600   4575473.1755    462672.5675   4405582.1183   1   8   0.0081   0.0039   0.0083   0.0023  -0.0020   0.0052   0.00  355.4
2016/07/12 10:12:16.650   4575473.1828    462672.5685   4405582.1154   1   8   0.0082   0.0039   0.0082   0.0024  -0.0023   0.0052   0.00  355.2
2016/07/12 10:12:16.700   4575473.1864    462672.5562   4405582.1242   1   8   0.0082   0.0040   0.0083   0.0024  -0.0021   0.0052   0.00  355.1
2016/07/12 10:12:16.750   4575473.1597    462672.5617   4405582.1083   1   8   0.0082   0.0040   0.0084   0.0023  -0.0021   0.0052   0.00  354.8
2016/07/12 10:12:16.800   4575473.1800    462672.5593   4405582.1207   1   8   0.0082   0.0038   0.0083   0.0021  -0.0021   0.0051   0.00  354.6
2016/07/12 10:12:16.850   4575473.1884    462672.5609   4405582.1192   1   8   0.0081   0.0042   0.0082   0.0028  -0.0014   0.0051   0.00  354.3
2016/07/12 10:12:16.900   4575473.1898    462672.5502   4405582.1169   1   8   0.0082   0.0035   0.0082   0.0026  -0.0020   0.0052   0.00  354.1
2016/07/12 10:12:16.950   4575473.1745    462672.5548   4405582.1110   1   8   0.0081   0.0034   0.0084   0.0024  -0.0026   0.0050   0.00  353.9
2016/07/12 10:12:17.000   4575473.1863    462672.5529   4405582.1047   1   8   0.0081   0.0041   0.0084   0.0023  -0.0019   0.0052   0.00  353.7
2016/07/12 10:12:17.050   4575473.1834    462672.5506   4405582.1133   1   8   0.0081   0.0037   0.0083   0.0025  -0.0018   0.0052   0.00  353.5
2016/07/12 10:12:17.100   4575473.1735    462672.5480   4405582.1189   1   8   0.0082   0.0039   0.0083   0.0025  -0.0027   0.0052   0.00  353.3
2016/07/12 10:12:17.150   4575473.1803    462672.5542   4405582.1210   1   8   0.0082   0.0043   0.0083   0.0022  -0.0021   0.0052   0.00  353.0
2016/07/12 10:12:17.200   4575473.1680    462672.5511   4405582.1117   1   8   0.0082   0.0039   0.0083   0.0024  -0.0022   0.0051   0.00  352.7
2016/07/12 10:12:17.250   4575473.1723    462672.5546   4405582.1236   1   8   0.0081   0.0037   0.0082   0.0024  -0.0023   0.0052   0.00  352.5
2016/07/12 10:12:17.300   4575473.1625    462672.5480   4405582.1148   1   8   0.0081   0.0039   0.0084   0.0022  -0.0024   0.0051   0.00  352.3
2016/07/12 10:12:17.350   4575473.1530    462672.5482   4405582.1089   1   8   0.0082   0.0042   0.0085   0.0024  -0.0021   0.0051   0.00  352.0
2016/07/12 10:12:17.400   4575473.1672    462672.5538   4405582.1133   1   8   0.0081   0.0040   0.0081   0.0025  -0.0024   0.0054   0.00  351.7
2016/07/12 10:12:17.450   4575473.1815    462672.5550   4405582.1164   1   8   0.0081   0.0036   0.0083   0.0026  -0.0020   0.0051   0.00  351.5
2016/07/12 10:12:17.500   4575473.1688    462672.5424   4405582.1113   1   8   0.0081   0.0036   0.0081   0.0024  -0.0025   0.0052   0.00  351.2
2016/07/12 10:12:17.550   4575473.1696    462672.5468   4405582.1193   1   8   0.0082   0.0038   0.0083   0.0027  -0.0022   0.0051   0.00  350.9
2016/07/12 10:12:17.600   4575473.1566    462672.5415   4405582.1120   1   8   0.0082   0.0041   0.0082   0.0024  -0.0022   0.0052   0.00  350.6
2016/07/12 10:12:17.650   4575473.1540    462672.5496   4405582.1238   1   8   0.0082   0.0043   0.0084   0.0018  -0.0022   0.0052   0.00  350.3
2016/07/12 10:12:17.700   4575473.1776    462672.5472   4405582.1293   1   8   0.0081   0.0038   0.0084   0.0025  -0.0024   0.0051   0.00  350.1
2016/07/12 10:12:17.750   4575473.1647    462672.5405   4405582.1106   1   8   0.0081   0.0035   0.0082   0.0024  -0.0027   0.0052   0.00  349.8
2016/07/12 10:12:17.800   4575473.1531    462672.5468   4405582.1052   1   8   0.0082   0.0036   0.0083   0.0024  -0.0024   0.0051   0.00  349.5
2016/07/12 10:12:17.850   4575473.1711    462672.5481   4405582.1121   1   8   0.0082   0.0043   0.0084   0.0022  -0.0020   0.0052   0.00  349.2
2016/07/12 10:12:17.900   4575473.1687    462672.5452   4405582.1187   1   8   0.0082   0.0036   0.0082   0.0025  -0.0025   0.0051   0.00  349.0
2016/07/12 10:12:17.950   4575473.1589    462672.5452   4405582.1097   1   8   0.0081   0.0036   0.0083   0.0025  -0.0025   0.0051   0.00  348.7
2016/07/12 10:12:18.000   4575473.1641    462672.5450   4405582.1208   1   8   0.0082   0.0038   0.0084   0.0025  -0.0020   0.0052   0.00  348.4
2016/07/12 10:12:18.050   4575473.1853    462672.5453   4405582.1234   1   8   0.0081   0.0035   0.0084   0.0027  -0.0019   0.0050   0.00  348.1
2016/07/12 10:12:18.100   4575473.1767    462672.5432   4405582.1166   1   8   0.0082   0.0039   0.0083   0.0023  -0.0024   0.0052   0.00  347.9
2016/07/12 10:12:18.150   4575473.1638    462672.5427   4405582.1216   1   8   0.0081   0.0037   0.0085   0.0024  -0.0025   0.0051   0.00  347.6
2016/07/12 10:12:18.200   4575473.1911    462672.5374   4405582.1271   1   8   0.0081   0.0040   0.0084   0.0026  -0.0019   0.0052   0.00  347.4
2016/07/12 10:12:18.250   4575473.1818    462672.5368   4405582.1216   1   8   0.0081   0.0036   0.0084   0.0026  -0.0024   0.0051   0.00  347.1
2016/07/12 10:12:18.300   4575473.1831    462672.5311   4405582.1181   1   8   0.0081   0.0039   0.0082   0.0022  -0.0025   0.0052   0.00  346.8
2016/07/12 10:12:18.350   4575473.1800    462672.5313   4405582.1177   1   8   0.0081   0.0042   0.0083   0.0025  -0.0022   0.0052   0.00  346.6
2016/07/12 10:12:18.400   4575473.1710    462672.5317   4405582.1077   1   8   0.0082   0.0044   0.0085   0.0022  -0.0024   0.0052   0.00  346.4
2016/07/12 10:12:18.450   4575473.1891    462672.5316   4405582.1138   1   8   0.0081   0.0038   0.0083   0.0023  -0.0022   0.0052   0.00  346.2
2016/07/12 10:12:18.500   4575473.1681    462672.5313   4405582.1100   1   8   0.0081   0.0038   0.0082   0.0024  -0.0023   0.0053   0.00  346.0
2016/07/12 10:12:18.550   4575473.1849    462672.5346   4405582.1127   1   8   0.0081   0.0036   0.0083   0.0025  -0.0022   0.0051   0.00  345.8
2016/07/12 10:12:18.600   4575473.1777    462672.5415   4405582.1109   1   8   0.0082   0.0036   0.0083   0.0024  -0.0025   0.0052   0.00  345.6
2016/07/12 10:12:18.650   4575473.1778    462672.5372   4405582.1113   1   8   0.0081   0.0036   0.0082   0.0027  -0.0022   0.0051   0.00  345.4
2016/07/12 10:12:18.700   4575473.1749    462672.5352   4405582.1144   1   8   0.0082   0.0034   0.0081   0.0024  -0.0025   0.0052   0.00  345.2
2016/07/12 10:12:18.750   4575473.1657    462672.5366   4405582.1166   1   8   0.0081   0.0036   0.0081   0.0026  -0.0022   0.0052   0.00  345.0
2016/07/12 10:12:18.800   4575473.1799    462672.5331   4405582.1125   1   8   0.0081   0.0037   0.0081   0.0026  -0.0022   0.0052   0.00  344.7
2016/07/12 10:12:18.850   4575473.1619    462672.5355   4405582.1129   1   8   0.0081   0.0039   0.0081   0.0025  -0.0022   0.0052   0.00  344.5
2016/07/12 10:12:18.900   4575473.1661    462672.5238   4405582.1187   1   8   0.0081   0.0039   0.0083   0.0026  -0.0022   0.0052   0.00  344.3
2016/07/12 10:12:18.950   4575473.1788    462672.5283   4405582.1092   1   8   0.0081   0.0039   0.0083   0.0026  -0.0017   0.0051   0.00  344.1
2016/07/12 10:12:19.000   4575473.1701    462672.5358   4405582.1076   1   8   0.0081   0.0037   0.0083   0.0025  -0.0024   0.0052   0.00  343.9
2016/07/12 10:12:19.050   4575473.1905    462672.5360   4405582.1167   1   8   0.0082   0.0039   0.0082   0.0025  -0.0019   0.0052   0.00  343.7
2016/07/12 10:12:19.100   4575473.1807    462672.5359   4405582.1127   1   8   0.0081   0.0041   0.0081   0.0026  -0.0021   0.0051   0.00  343.5
2016/07/12 10:12:19.150   4575473.1834    462672.5306   4405582.1121   1   8   0.0081   0.0039   0.0082   0.0026  -0.0021   0.0052   0.00  343.3
2016/07/12 10:12:19.200   4575473.1674    462672.5346   4405582.1167   1   8   0.0081   0.0038   0.0084   0.0024  -0.0022   0.0052   0.00  343.1
2016/07/12 10:12:19.250   4575473.1595    462672.5355   4405582.1141   1   8   0.0082   0.0040   0.0085   0.0024  -0.0023   0.0050   0.00  342.9
2016/07/12 10:12:19.300   4575473.1618    462672.5334   4405582.1141   1   8   0.0082   0.0040   0.0083   0.0025  -0.0020   0.0053   0.00  342.7
2016/07/12 10:12:19.350   4575473.1471    462672.5433   4405582.1180   1   8   0.0082   0.0038   0.0082   0.0023  -0.0020   0.0053   0.00  342.5
2016/07/12 10:12:19.400   4575473.1517    462672.5413   4405582.1158   1   8   0.0081   0.0041   0.0084   0.0024  -0.0017   0.0052   0.00  342.3
2016/07/12 10:12:19.450   4575473.1766    462672.5478   4405582.1313   1   8   0.0081   0.0039   0.0082   0.0025  -0.0023   0.0052   0.00  342.1
2016/07/12 10:12:19.500   4575473.1691    462672.5514   4405582.1258   1   8   0.0082   0.0039   0.0083   0.0023  -0.0020   0.0052   0.00  342.0
2016/07/12 10:12:19.550   4575473.1723    462672.5505   4405582.1253   1   8   0.0082   0.0038   0.0083   0.0021  -0.0023   0.0052   0.00  341.8
2016/07/12 10:12:19.600   4575473.1638    462672.5588   4405582.1283   1   8   0.0081   0.0040   0.0083   0.0023  -0.0020   0.0052   0.00  341.6
2016/07/12 10:12:19.650   4575473.1619    462672.5603   4405582.1281   1   8   0.0081   0.0037   0.0083   0.0024  -0.0022   0.0052   0.00  341.3
2016/07/12 10:12:19.700   4575473.1683    462672.5637   4405582.1308   1   8   0.0082   0.0036   0.0083   0.0024  -0.0022   0.0052   0.00  341.1
2016/07/12 10:12:19.750   4575473.1576    462672.5752   4405582.1179   1   8   0.0081   0.0038   0.0084   0.0023  -0.0022   0.0051   0.00  341.0
2016/07/12 10:12:19.800   4575473.1638    462672.5738   4405582.1384   1   8   0.0081   0.0033   0.0082   0.0026  -0.0021   0.0052   0.00  340.8
2016/07/12 10:12:19.850   4575473.1523    462672.5711   4405582.1109   1   8   0.0081   0.0037   0.0084   0.0025  -0.0024   0.0052   0.00  340.7
2016/07/12 10:12:19.900   4575473.1565    462672.5837   4405582.1228   1   8   0.0081   0.0039   0.0085   0.0023  -0.0023   0.0051   0.00  340.6
2016/07/12 10:12:19.950   4575473.1494    462672.5816   4405582.1179   1   8   0.0081   0.0037   0.0082   0.0026  -0.0025   0.0052   0.00  340.5
2016/07/12 10:12:20.000   4575473.1551    462672.5836   4405582.1205   1   8   0.0082   0.0040   0.0083   0.0023  -0.0021   0.0052   0.00  340.4
2016/07/12 10:12:20.050   4575473.1566    462672.5798   4405582.1219   1   8   0.0082   0.0038   0.0082   0.0023  -0.0023   0.0052   0.00  340.4
2016/07/12 10:12:20.100   4575473.1532    462672.5795   4405582.1174   1   8   0.0081   0.0043   0.0084   0.0023  -0.0022   0.0052   0.00  340.3
2016/07/12 10:12:20.150   4575473.1568    462672.5865   4405582.1311   1   8   0.0081   0.0041   0.0082   0.0024  -0.0021   0.0051   0.00  340.2
2016/07/12 10:12:20.200   4575473.1626    462672.5833   4405582.1304   1   8   0.0081   0.0039   0.0083   0.0024  -0.0024   0.0052   0.00  340.1
2016/07/12 10:12:20.250   4575473.1642    462672.5858   4405582.1262   1   8   0.0081   0.0037   0.0083   0.0023  -0.0022   0.0051   0.00  340.0
2016/07/12 10:12:20.300   4575473.1637    462672.5902   4405582.1310   1   8   0.0081   0.0035   0.0082   0.0026  -0.0023   0.0051   0.00  340.0
2016/07/12 10:12:20.350   4575473.1552    462672.5962   4405582.1039   1   8   0.0081   0.0038   0.0082   0.0027  -0.0022   0.0052   0.00  339.9
2016/07/12 10:12:20.400   4575473.1731    462672.5938   4405582.1158   1   8   0.0082   0.0038   0.0084   0.0027  -0.0020   0.0051   0.00  339.8
2016/07/12 10:12:20.450   4575473.1717    462672.5998   4405582.1147   1   8   0.0082   0.0037   0.0082   0.0026  -0.0023   0.0052   0.00  339.7
2016/07/12 10:12:20.500   4575473.1720    462672.6013   4405582.1001   1   8   0.0081   0.0039   0.0082   0.0024  -0.0024   0.0052   0.00  339.7
2016/07/12 10:12:20.550   4575473.1888    462672.6045   4405582.1135   1   8   0.0082   0.0042   0.0084   0.0021  -0.0024   0.0052   0.00  339.7
2016/07/12 10:12:20.600   4575473.1858    462672.6086   4405582.0930   1   8   0.0082   0.0041   0.0084   0.0023  -0.0021   0.0052   0.00  339.5
2016/07/12 10:12:20.650   4575473.1658    462672.6077   4405582.0912   1   8   0.0081   0.0037   0.0084   0.0024  -0.0022   0.0053   0.00  339.4
2016/07/12 10:12:20.700   4575473.1921    462672.6100   4405582.0892   1   8   0.0082   0.0037   0.0083   0.0025  -0.0019   0.0051   0.00  339.4
2016/07/12 10:12:20.750   4575473.1787    462672.6086   4405582.0815   1   8   0.0082   0.0040   0.0083   0.0022  -0.0023   0.0052   0.00  339.3
2016/07/12 10:12:20.800   4575473.1801    462672.6132   4405582.0890   1   8   0.0081   0.0037   0.0082   0.0026  -0.0021   0.0051   0.00  339.3
2016/07/12 10:12:20.850   4575473.1764    462672.6145   4405582.0895   1   8   0.0082   0.0038   0.0081   0.0025  -0.0020   0.0052   0.00  339.2
2016/07/12 10:12:20.900   4575473.1813    462672.6116   4405582.0893   1   8   0.0082   0.0039   0.0083   0.0024  -0.0026   0.0052   0.00  339.2
2016/07/12 10:12:20.950   4575473.1839    462672.6211   4405582.0935   1   8   0.0082   0.0042   0.0084   0.0021  -0.0022   0.0052   0.00  339.2
2016/07/12 10:12:21.000   4575473.1686    462672.6224   4405582.0961   1   8   0.0082   0.0039   0.0083   0.0024  -0.0021   0.0052   0.00  339.1
2016/07/12 10:12:21.050   4575473.1730    462672.6297   4405582.0998   1   8   0.0081   0.0033   0.0083   0.0026  -0.0020   0.0052   0.00  339.2
2016/07/12 10:12:21.100   4575473.1672    462672.6258   4405582.0843   1   8   0.0081   0.0037   0.0082   0.0026  -0.0018   0.0052   0.00  339.2
2016/07/12 10:12:21.150   4575473.1735    462672.6328   4405582.0893   1   8   0.0081   0.0037   0.0084   0.0024  -0.0022   0.0051   0.00  339.2
2016/07/12 10:12:21.200   4575473.1434    462672.6277   4405582.0785   1   8   0.0081   0.0040   0.0082   0.0024  -0.0024   0.0053   0.00  339.1
2016/07/12 10:12:21.250   4575473.1830    462672.6306   4405582.0970   1   8   0.0082   0.0040   0.0082   0.0024  -0.0021   0.0052   0.00  339.1
2016/07/12 10:12:21.300   4575473.1677    462672.6228   4405582.0975   1   8   0.0082   0.0039   0.0083   0.0024  -0.0020   0.0052   0.00  339.1
2016/07/12 10:12:21.350   4575473.1800    462672.6167   4405582.1094   1   8   0.0082   0.0038   0.0084   0.0022  -0.0024   0.0052   0.00  339.1
2016/07/12 10:12:21.400   4575473.1744    462672.6198   4405582.0949   1   8   0.0082   0.0038   0.0082   0.0024  -0.0022   0.0052   0.00  339.0
2016/07/12 10:12:21.450   4575473.1596    462672.6068   4405582.0872   1   8   0.0081   0.0034   0.0082   0.0025  -0.0024   0.0052   0.00  339.0
2016/07/12 10:12:21.500   4575473.1882    462672.6090   4405582.0996   1   8   0.0082   0.0038   0.0083   0.0025  -0.0019   0.0051   0.00  338.9
2016/07/12 10:12:21.550   4575473.1984    462672.5979   4405582.0998   1   8   0.0081   0.0038   0.0083   0.0026  -0.0019   0.0052   0.00  338.9
2016/07/12 10:12:21.600   4575473.1774    462672.5924   4405582.0891   1   8   0.0082   0.0039   0.0083   0.0024  -0.0019   0.0051   0.00  338.8
2016/07/12 10:12:21.650   4575473.1882    462672.5891   4405582.0943   1   8   0.0082   0.0039   0.0082   0.0025  -0.0023   0.0052   0.00  338.7
2016/07/12 10:12:21.700   4575473.2000    462672.5818   4405582.1033   1   8   0.0081   0.0041   0.0082   0.0025  -0.0019   0.0052   0.00  338.6
2016/07/12 10:12:21.750   4575473.1952    462672.5826   4405582.0932   1   8   0.0081   0.0041   0.0082   0.0024  -0.0023   0.0052   0.00  338.4
2016/07/12 10:12:21.800   4575473.1851    462672.5745   4405582.0913   1   8   0.0082   0.0045   0.0085   0.0017  -0.0022   0.0052   0.00  338.3
2016/07/12 10:12:21.850   4575473.1911    462672.5653   4405582.0973   1   8   0.0081   0.0040   0.0082   0.0024  -0.0019   0.0052   0.00  338.2
2016/07/12 10:12:21.900   4575473.1927    462672.5600   4405582.0896   1   8   0.0081   0.0041   0.0084   0.0024  -0.0023   0.0051   0.00  338.0
2016/07/12 10:12:21.950   4575473.2028    462672.5513   4405582.0978   1   8   0.0081   0.0038   0.0084   0.0024  -0.0023   0.0051   0.00  337.9
2016/07/12 10:12:22.000   4575473.1916    462672.5445   4405582.0966   1   8   0.0082   0.0035   0.0083   0.0027  -0.0023   0.0052   0.00  337.7
2016/07/12 10:12:22.050   4575473.1849    462672.5415   4405582.0973   1   8   0.0082   0.0039   0.0083   0.0023  -0.0021   0.0052   0.00  337.5
2016/07/12 10:12:22.100   4575473.1936    462672.5363   4405582.1056   1   8   0.0083   0.0038   0.0082   0.0024  -0.0024   0.0052   0.00  337.3
2016/07/12 10:12:22.150   4575473.1848    462672.5343   4405582.1055   1   8   0.0081   0.0039   0.0082   0.0024  -0.0022   0.0052   0.00  337.2
2016/07/12 10:12:22.200   4575473.1914    462672.5338   4405582.1046   1   8   0.0082   0.0042   0.0082   0.0024  -0.0024   0.0052   0.00  337.0
2016/07/12 10:12:22.250   4575473.1951    462672.5347   4405582.1064   1   8   0.0081   0.0035   0.0083   0.0023  -0.0026   0.0052   0.00  336.9
2016/07/12 10:12:22.300   4575473.1826    462672.5339   4405582.1035   1   8   0.0082   0.0039   0.0083   0.0026  -0.0016   0.0051   0.00  336.7
2016/07/12 10:12:22.350   4575473.1765    462672.5392   4405582.1023   1   8   0.0081   0.0036   0.0083   0.0022  -0.0026   0.0052   0.00  336.6
2016/07/12 10:12:22.400   4575473.1882    462672.5425   4405582.1180   1   8   0.0082   0.0037   0.0082   0.0024  -0.0025   0.0052   0.00  336.4
2016/07/12 10:12:22.450   4575473.1876    462672.5491   4405582.1034   1   8   0.0082   0.0040   0.0084   0.0021  -0.0020   0.0052   0.00  336.1
2016/07/12 10:12:22.500   4575473.1750    462672.5404   4405582.0953   1   8   0.0081   0.0034   0.0083   0.0027  -0.0024   0.0050   0.00  335.9
2016/07/12 10:12:22.550   4575473.1816    462672.5516   4405582.1161   1   8   0.0082   0.0035   0.0082   0.0025  -0.0026   0.0052   0.00  335.7
2016/07/12 10:12:22.600   4575473.1597    462672.5499   4405582.0991   1   8   0.0081   0.0034   0.0084   0.0026  -0.0020   0.0052   0.00  335.5
2016/07/12 10:12:22.650   4575473.1760    462672.5456   4405582.1122   1   8   0.0082   0.0039   0.0082   0.0028  -0.0022   0.0052   0.00  335.3
2016/07/12 10:12:22.700   4575473.1688    462672.5529   4405582.1133   1   8   0.0082   0.0037   0.0084   0.0023  -0.0021   0.0052   0.00  335.0
2016/07/12 10:12:22.750   4575473.1709    462672.5658   4405582.1186   1   8   0.0082   0.0040   0.0083   0.0025  -0.0021   0.0052   0.00  334.8
2016/07/12 10:12:22.800   4575473.1697    462672.5627   4405582.1219   1   8   0.0081   0.0039   0.0084   0.0023  -0.0020   0.0052   0.00  334.6
2016/07/12 10:12:22.850   4575473.1644    462672.5675   4405582.1125   1   8   0.0081   0.0038   0.0083   0.0025  -0.0023   0.0052   0.00  334.4
2016/07/12 10:12:22.900   4575473.1476    462672.5780   4405582.1174   1   8   0.0082   0.0043   0.0083   0.0024  -0.0019   0.0052   0.00  334.2
2016/07/12 10:12:22.950   4575473.1674    462672.5760   4405582.1279   1   8   0.0082   0.0038   0.0084   0.0025  -0.0022   0.0051   0.00  334.0
2016/07/12 10:12:23.000   4575473.1481    462672.5789   4405582.1206   1   8   0.0081   0.0039   0.0083   0.0024  -0.0024   0.0052   0.00  333.9
2016/07/12 10:12:23.050   4575473.1552    462672.5739   4405582.1239   1   8   0.0081   0.0036   0.0082   0.0025  -0.0025   0.0052   0.00  333.7
2016/07/12 10:12:23.100   4575473.1384    462672.5843   4405582.1209   1   8   0.0082   0.0038   0.0084   0.0024  -0.0024   0.0052   0.00  333.6
2016/07/12 10:12:23.150   4575473.1385    462672.5843   4405582.1155   1   8   0.0081   0.0037   0.0084   0.0022  -0.0023   0.0052   0.00  333.5
2016/07/12 10:12:23.200   4575473.1484    462672.5876   4405582.1299   1   8   0.0081   0.0042   0.0082   0.0023  -0.0024   0.0053   0.00  333.5
2016/07/12 10:12:23.250   4575473.1392    462672.5871   4405582.1307   1   8   0.0082   0.0037   0.0082   0.0026  -0.0025   0.0052   0.00  333.4
2016/07/12 10:12:23.300   4575473.1551    462672.5913   4405582.1436   1   8   0.0082   0.0043   0.0083   0.0022  -0.0023   0.0052   0.00  333.2
2016/07/12 10:12:23.350   4575473.1368    462672.5945   4405582.1250   1   8   0.0082   0.0041   0.0083   0.0021  -0.0025   0.0051   0.00  333.1
2016/07/12 10:12:23.400   4575473.1514    462672.6014   4405582.1408   1   8   0.0082   0.0035   0.0082   0.0025  -0.0025   0.0052   0.00  333.0
2016/07/12 10:12:23.450   4575473.1241    462672.6011   4405582.1211   1   8   0.0081   0.0041   0.0082   0.0021  -0.0020   0.0053   0.00  333.0
2016/07/12 10:12:23.500   4575473.1382    462672.6037   4405582.1291   1   8   0.0081   0.0041   0.0084   0.0025  -0.0020   0.0051   0.00  332.9
2016/07/12 10:12:23.550   4575473.1524    462672.6106   4405582.1383   1   8   0.0082   0.0036   0.0083   0.0024  -0.0023   0.0051   0.00  332.8
2016/07/12 10:12:23.600   4575473.1245    462672.6190   4405582.1176   1   8   0.0081   0.0040   0.0083   0.0026  -0.0024   0.0052   0.00  332.6
2016/07/12 10:12:23.650   4575473.1471    462672.6217   4405582.1356   1   8   0.0081   0.0040   0.0084   0.0025  -0.0024   0.0051   0.00  332.6
2016/07/12 10:12:23.700   4575473.1367    462672.6231   4405582.1382   1   8   0.0081   0.0035   0.0085   0.0027  -0.0020   0.0051   0.00  332.6
2016/07/12 10:12:23.750   4575473.1146    462672.6289   4405582.1309   1   8   0.0081   0.0035   0.0082   0.0024  -0.0024   0.0052   0.00  332.5
2016/07/12 10:12:23.800   4575473.1294    462672.6352   4405582.1428   1   8   0.0082   0.0037   0.0083   0.0025  -0.0019   0.0051   0.00  332.5
2016/07/12 10:12:23.850   4575473.1204    462672.6450   4405582.1367   1   8   0.0082   0.0038   0.0083   0.0025  -0.0020   0.0052   0.00  332.4
2016/07/12 10:12:23.900   4575473.1177    462672.6465   4405582.1491   1   8   0.0081   0.0034   0.0084   0.0028  -0.0018   0.0051   0.00  332.3
2016/07/12 10:12:23.950   4575473.1213    462672.6560   4405582.1597   1   8   0.0081   0.0039   0.0086   0.0025  -0.0020   0.0051   0.00  332.2
2016/07/12 10:12:24.000   4575473.1085    462672.6620   4405582.1679   1   8   0.0081   0.0040   0.0082   0.0025  -0.0022   0.0052   0.00  332.1
2016/07/12 10:12:24.050   4575473.0831    462672.6641   4405582.1523   1   8   0.0082   0.0040   0.0084   0.0024  -0.0027   0.0051   0.00  332.0
2016/07/12 10:12:24.100   4575473.0971    462672.6672   4405582.1620   1   8   0.0081   0.0039   0.0083   0.0025  -0.0022   0.0052   0.00  331.9
2016/07/12 10:12:24.150   4575473.0857    462672.6831   4405582.1568   1   8   0.0082   0.0042   0.0082   0.0022  -0.0024   0.0052   0.00  331.8
2016/07/12 10:12:24.200   4575473.0802    462672.6876   4405582.1596   1   8   0.0082   0.0033   0.0084   0.0025  -0.0024   0.0051   0.00  331.8
2016/07/12 10:12:24.250   4575473.0916    462672.6908   4405582.1701   1   8   0.0082   0.0047   0.0086   0.0020  -0.0022   0.0053   0.00  331.6
2016/07/12 10:12:24.300   4575473.0808    462672.7033   4405582.1786   1   8   0.0081   0.0038   0.0084   0.0026  -0.0014   0.0051   0.00  331.5
2016/07/12 10:12:24.350   4575473.0687    462672.6994   4405582.1631   1   8   0.0082   0.0040   0.0084   0.0026  -0.0020   0.0051   0.00  331.3
2016/07/12 10:12:24.400   4575473.0687    462672.7044   4405582.1722   1   8   0.0082   0.0039   0.0083   0.0025  -0.0019   0.0051   0.00  331.2
2016/07/12 10:12:24.450   4575473.0680    462672.7128   4405582.1634   1   8   0.0082   0.0042   0.0083   0.0023  -0.0022   0.0052   0.00  331.1
2016/07/12 10:12:24.500   4575473.0614    462672.7117   4405582.1614   1   8   0.0082   0.0040   0.0083   0.0024  -0.0017   0.0052   0.00  331.0
2016/07/12 10:12:24.550   4575473.0767    462672.7194   4405582.1743   1   8   0.0081   0.0038   0.0084   0.0024  -0.0020   0.0052   0.00  330.9
2016/07/12 10:12:24.600   4575473.0724    462672.7102   4405582.1568   1   8   0.0080   0.0035   0.0083   0.0028  -0.0017   0.0052   0.00  330.8
2016/07/12 10:12:24.650   4575473.0656    462672.7172   4405582.1451   1   8   0.0081   0.0038   0.0083   0.0028  -0.0021   0.0051   0.00  330.6
2016/07/12 10:12:24.700   4575473.0914    462672.7113   4405582.1502   1   8   0.0081   0.0033   0.0084   0.0025  -0.0024   0.0051   0.00  330.6
2016/07/12 10:12:24.750   4575473.0846    462672.7023   4405582.1379   1   8   0.0081   0.0037   0.0084   0.0026  -0.0019   0.0052   0.00  330.5
2016/07/12 10:12:24.800   4575473.1195    462672.6929   4405582.1554   1   8   0.0081   0.0041   0.0083   0.0021  -0.0022   0.0053   0.00  330.5
2016/07/12 10:12:24.850   4575473.1202    462672.6795   4405582.1437   1   8   0.0081   0.0037   0.0083   0.0026  -0.0026   0.0051   0.00  330.5
2016/07/12 10:12:24.900   4575473.1328    462672.6767   4405582.1270   1   8   0.0081   0.0036   0.0083   0.0025  -0.0022   0.0052   0.00  330.5
2016/07/12 10:12:24.950   4575473.1322    462672.6769   4405582.1365   1   8   0.0082   0.0039   0.0084   0.0024  -0.0016   0.0051   0.00  330.5
2016/07/12 10:12:25.000   4575473.1306    462672.6667   4405582.1284   1   8   0.0081   0.0041   0.0082   0.0024  -0.0019   0.0052   0.00  330.4
2016/07/12 10:12:25.050   4575473.1558    462672.6677   4405582.1401   1   8   0.0082   0.0038   0.0082   0.0023  -0.0024   0.0052   0.00  330.4
2016/07/12 10:12:25.100   4575473.1439    462672.6549   4405582.1264   1   8   0.0082   0.0038   0.0082   0.0022  -0.0025   0.0052   0.00  330.3
2016/07/12 10:12:25.150   4575473.1284    462672.6552   4405582.1225   1   8   0.0081   0.0039   0.0084   0.0023  -0.0023   0.0052   0.00  330.2
2016/07/12 10:12:25.200   4575473.1473    462672.6526   4405582.1340   1   8   0.0082   0.0038   0.0084   0.0023  -0.0025   0.0051   0.00  330.1
2016/07/12 10:12:25.250   4575473.1379    462672.6507   4405582.1369   1   8   0.0081   0.0035   0.0082   0.0027  -0.0021   0.0052   0.00  330.0
2016/07/12 10:12:25.300   4575473.1322    462672.6405   4405582.1337   1   8   0.0081   0.0038   0.0083   0.0023  -0.0025   0.0052   0.00  329.9
2016/07/12 10:12:25.350   4575473.1237    462672.6394   4405582.1276   1   8   0.0082   0.0039   0.0082   0.0023  -0.0026   0.0051   0.00  329.8
2016/07/12 10:12:25.400   4575473.1269    462672.6366   4405582.1374   1   8   0.0081   0.0039   0.0083   0.0025  -0.0020   0.0051   0.00  329.7
2016/07/12 10:12:25.450   4575473.1335    462672.6406   4405582.1240   1   8   0.0081   0.0036   0.0082   0.0027  -0.0022   0.0052   0.00  329.6
2016/07/12 10:12:25.500   4575473.1393    462672.6324   4405582.1347   1   8   0.0081   0.0035   0.0081   0.0026  -0.0022   0.0052   0.00  329.5
2016/07/12 10:12:25.550   4575473.1369    462672.6284   4405582.1368   1   8   0.0082   0.0040   0.0084   0.0023  -0.0026   0.0052   0.00  329.3
2016/07/12 10:12:25.600   4575473.1487    462672.6248   4405582.1259   1   8   0.0082   0.0037   0.0084   0.0024  -0.0025   0.0052   0.00  329.3
2016/07/12 10:12:25.650   4575473.1392    462672.6259   4405582.1146   1   8   0.0082   0.0032   0.0083   0.0026  -0.0023   0.0051   0.00  329.3
2016/07/12 10:12:25.700   4575473.1365    462672.6145   4405582.1050   1   8   0.0081   0.0036   0.0083   0.0030  -0.0020   0.0052   0.00  329.1
2016/07/12 10:12:25.750   4575473.1658    462672.6126   4405582.1157   1   8   0.0082   0.0036   0.0081   0.0025  -0.0023   0.0052   0.00  329.0
2016/07/12 10:12:25.800   4575473.1643    462672.6146   4405582.1192   1   8   0.0081   0.0038   0.0083   0.0026  -0.0019   0.0051   0.00  328.9
2016/07/12 10:12:25.850   4575473.1535    462672.6090   4405582.1027   1   8   0.0082   0.0039   0.0080   0.0021  -0.0023   0.0053   0.00  328.9
2016/07/12 10:12:25.900   4575473.1543    462672.6050   4405582.1009   1   8   0.0081   0.0038   0.0084   0.0024  -0.0018   0.0052   0.00  328.8
2016/07/12 10:12:25.950   4575473.1478    462672.6039   4405582.0966   1   8   0.0081   0.0032   0.0084   0.0028  -0.0024   0.0051   0.00  328.6
2016/07/12 10:12:26.000   4575473.1598    462672.6000   4405582.0899   1   8   0.0082   0.0042   0.0082   0.0024  -0.0022   0.0052   0.00  328.5
2016/07/12 10:12:26.050   4575473.1662    462672.5979   4405582.1061   1   8   0.0081   0.0040   0.0084   0.0026  -0.0022   0.0052   0.00  328.4
2016/07/12 10:12:26.100   4575473.1605    462672.5912   4405582.0877   1   8   0.0082   0.0040   0.0084   0.0022  -0.0021   0.0051   0.00  328.3
2016/07/12 10:12:26.150   4575473.1742    462672.5897   4405582.1020   1   8   0.0082   0.0039   0.0084   0.0022  -0.0024   0.0052   0.00  328.2
2016/07/12 10:12:26.200   4575473.1866    462672.5872   4405582.0941   1   8   0.0081   0.0038   0.0083   0.0023  -0.0022   0.0053   0.00  328.1
2016/07/12 10:12:26.250   4575473.1801    462672.5890   4405582.1020   1   8   0.0081   0.0037   0.0083   0.0025  -0.0024   0.0051   0.00  327.9
2016/07/12 10:12:26.300   4575473.1567    462672.5845   4405582.0941   1   8   0.0081   0.0039   0.0083   0.0026  -0.0016   0.0051   0.00  327.8
2016/07/12 10:12:26.350   4575473.1841    462672.5774   4405582.1060   1   8   0.0081   0.0037   0.0082   0.0025  -0.0022   0.0052   0.00  327.6
2016/07/12 10:12:26.400   4575473.1625    462672.5762   4405582.0791   1   8   0.0082   0.0036   0.0083   0.0024  -0.0022   0.0051   0.00  327.5
2016/07/12 10:12:26.450   4575473.1892    462672.5831   4405582.1021   1   8   0.0082   0.0037   0.0083   0.0024  -0.0020   0.0052   0.00  327.3
2016/07/12 10:12:26.500   4575473.1624    462672.5730   4405582.0905   1   8   0.0081   0.0039   0.0083   0.0023  -0.0022   0.0053   0.00  327.2
2016/07/12 10:12:26.550   4575473.1883    462672.5739   4405582.0969   1   8   0.0081   0.0044   0.0084   0.0025  -0.0018   0.0052   0.00  327.0
2016/07/12 10:12:26.600   4575473.1868    462672.5743   4405582.1047   1   8   0.0082   0.0038   0.0084   0.0025  -0.0024   0.0052   0.00  326.9
2016/07/12 10:12:26.650   4575473.1820    462672.5703   4405582.0928   1   8   0.0082   0.0039   0.0084   0.0022  -0.0025   0.0052   0.00  326.7
2016/07/12 10:12:26.700   4575473.1749    462672.5709   4405582.0859   1   8   0.0081   0.0037   0.0083   0.0024  -0.0021   0.0051   0.00  326.5
2016/07/12 10:12:26.750   4575473.1878    462672.5734   4405582.0841   1   8   0.0082   0.0037   0.0083   0.0023  -0.0021   0.0052   0.00  326.3
2016/07/12 10:12:26.800   4575473.1917    462672.5731   4405582.0964   1   8   0.0082   0.0038   0.0081   0.0024  -0.0024   0.0052   0.00  326.2
2016/07/12 10:12:26.850   4575473.1777    462672.5705   4405582.1059   1   8   0.0082   0.0037   0.0082   0.0026  -0.0022   0.0052   0.00  326.1
